City_ID,City,Lat,Lng,Max Temp,Humidity,Cloudiness,Wind Speed,Country,Date
0,albany,42.6001,-73.9662,21.76,40,6,0.45,US,1685140525
1,lebu,-37.6167,-73.65,9.77,76,99,3.93,CL,1685140717
2,bardai,11.65,7.2333,26.62,63,100,5.23,NG,1685140717
3,az zuwaytinah,30.9522,20.1202,19.67,81,1,5.0,LY,1685140718
4,lompoc,34.6391,-120.4579,23.72,68,0,5.81,US,1685140718
5,okhotsk,59.3833,143.3,7.11,64,89,1.55,RU,1685140718
6,puerto natales,-51.7236,-72.4875,3.25,60,75,6.69,CL,1685140718
7,el bolson,-41.9667,-71.5167,-0.48,97,82,2.37,AR,1685140718
8,hithadhoo,-0.6,73.0833,27.83,74,97,4.31,MV,1685140718
9,xiva,41.3783,60.3639,18.99,17,74,4.48,UZ,1685140718
10,minas de marcona,-15.2119,-75.1103,14.92,86,100,6.23,PE,1685140718
11,ushuaia,-54.8,-68.3,1.81,87,75,15.43,AR,1685140692
12,iqaluit,63.7506,-68.5145,-5.15,73,20,10.29,CA,1685140719
13,edinburgh of the seven seas,-37.0676,-12.3116,13.13,67,79,11.21,SH,1685140719
14,selfoss,63.9331,-20.9971,5.02,86,99,11.83,IS,1685140719
15,margaret river,-33.95,115.0667,12.51,73,75,0.26,AU,1685140719
16,rongelap,11.1635,166.8941,27.3,77,100,7.19,MH,1685140719
17,laguna,38.421,-121.4238,26.84,49,0,5.14,US,1685140719
18,ilulissat,69.2167,-51.1,2.01,87,100,6.69,GL,1685140719
19,hami,42.8,93.45,18.15,20,16,5.32,CN,1685140720
20,east london,-33.0153,27.9116,13.5,54,4,2.09,ZA,1685140720
21,port-aux-francais,-49.35,70.2167,4.76,98,97,9.46,TF,1685140720
22,wailua homesteads,22.0669,-159.378,26.44,65,20,6.17,US,1685140720
23,temiskaming shores,47.4938,-79.7153,24.89,43,36,1.94,CA,1685140720
24,port mathurin,-19.6833,63.4167,25.1,75,25,9.44,MU,1685140720
25,chonchi,-42.6128,-73.8092,4.56,89,7,1.22,CL,1685140720
26,hermanus,-34.4187,19.2345,11.61,68,0,3.15,ZA,1685140720
27,saipan,15.1355,145.701,28.14,100,40,8.23,MP,1685140721
28,nemuro,43.3236,145.575,10.81,91,94,6.99,JP,1685140629
29,palikir - national government center,6.9248,158.1611,27.41,83,100,1.54,FM,1685140721
30,mata-utu,-13.2816,-176.1745,27.62,82,100,6.64,WF,1685140721
31,raduzhnyy,62.0961,77.475,8.97,57,12,2.84,RU,1685140721
32,geraldton,-28.7667,114.6,10.23,62,100,4.63,AU,1685140721
33,santo antonio do ica,-3.1022,-67.9397,25.03,93,63,0.99,BR,1685140721
34,nuku'alofa,-21.1333,-175.2,25.19,78,20,1.03,TO,1685140721
35,kurye,35.2094,127.4644,19.99,94,100,1.89,KR,1685140722
36,el calafate,-50.3408,-72.2768,-0.54,70,4,4.76,AR,1685140722
37,newman,37.3138,-121.0208,27.79,10,1,2.08,US,1685140722
38,waitangi,-43.9535,-176.5597,15.46,84,21,4.47,NZ,1685140722
39,coruripe,-10.1256,-36.1756,24.32,88,24,2.89,BR,1685140722
40,papatowai,-46.5619,169.4708,9.94,88,100,3.23,NZ,1685140722
41,esmeralda,21.8525,-78.1169,28.2,66,13,4.72,CU,1685140722
42,port elizabeth,-33.918,25.5701,9.16,87,0,1.03,ZA,1685140722
43,yellowknife,62.456,-114.3525,21.29,40,40,4.12,CA,1685140607
44,yanchep,-31.55,115.6833,8.12,64,73,2.56,AU,1685140723
45,longyearbyen,78.2186,15.6401,-1.09,64,20,5.14,SJ,1685140579
46,copiapo,-27.3667,-70.3333,13.83,48,100,0.53,CL,1685140611
47,adamstown,-25.066,-130.1015,22.7,71,7,4.49,PN,1685140723
48,grytviken,-54.2811,-36.5092,3.47,98,100,2.9,GS,1685140723
49,cockburn town,21.4612,-71.1419,28.11,75,0,0.83,TC,1685140723
50,boende,-0.2167,20.8667,24.63,78,95,1.2,CD,1685140723
51,port augusta,-32.5,137.7667,13.16,67,95,2.11,AU,1685140723
52,la passe,45.5549,-0.8967,22.13,89,1,4.8,FR,1685140724
53,port alfred,-33.5906,26.891,12.92,70,3,2.65,ZA,1685140724
54,samarinda,-0.5,117.15,24.43,92,96,1.2,ID,1685140724
55,jamestown,42.097,-79.2353,19.73,36,0,5.14,US,1685140603
56,konosha,60.9736,40.257,10.72,74,90,0.75,RU,1685140724
57,klyuchi,52.2667,79.1667,7.84,53,21,3.36,RU,1685140724
58,college,64.8569,-147.8028,17.27,66,100,7.2,US,1685140477
59,tiksi,71.6872,128.8694,1.39,99,100,5.21,RU,1685140724
60,griffith,41.5284,-87.4237,22.39,40,2,2.68,US,1685140724
61,angaur state,6.906,134.13,28.65,80,100,11.66,PW,1685140725
62,olonkinbyen,70.9221,-8.7187,0.57,77,59,6.6,SJ,1685140725
63,usogorsk,63.4106,48.6872,10.67,71,90,1.81,RU,1685140725
64,bad langensalza,51.1,10.65,11.69,90,4,1.73,DE,1685140725
65,uglegorsk,49.0833,142.0333,9.37,89,100,5.17,RU,1685140725
66,invercargill,-46.4,168.35,10.29,87,99,3.54,NZ,1685140725
67,krutinka,56.0055,71.5113,9.88,64,76,0.5,RU,1685140725
68,west island,-12.1568,96.8225,25.99,78,40,7.72,CC,1685140725
69,keflavik,64.0049,-22.5624,5.95,87,75,13.89,IS,1685140726
70,blackmans bay,-43.0167,147.3167,11.96,68,94,5.12,AU,1685140726
71,hawaiian paradise park,19.5933,-154.9731,25.73,85,75,3.6,US,1685140726
72,inhambane,-23.865,35.3833,21.17,79,5,2.28,MZ,1685140726
73,sao francisco,-15.9486,-44.8644,25.31,52,85,3.52,BR,1685140726
74,atakpame,7.5333,1.1333,23.82,93,62,2.02,TG,1685140726
75,vila velha,-20.3297,-40.2925,22.97,84,40,1.54,BR,1685140525
76,ribeira grande,38.5167,-28.7,17.1,82,7,6.71,PT,1685140726
77,hotan,37.0997,79.9269,15.93,48,100,1.74,CN,1685140727
78,thompson,55.7435,-97.8558,6.09,100,100,2.57,CA,1685140727
79,chibougamau,49.9168,-74.3659,13.79,41,100,2.57,CA,1685140727
80,nova sintra,14.8667,-24.7167,21.08,84,100,6.25,CV,1685140727
81,bredasdorp,-34.5322,20.0403,9.19,71,0,1.96,ZA,1685140727
82,port lincoln,-34.7333,135.8667,14.73,69,97,5.42,AU,1685140727
83,bethel,41.3712,-73.414,22.25,36,0,3.09,US,1685140537
84,jambi city,-1.6,103.6167,23.37,99,99,0.2,ID,1685140727
85,borgarnes,64.5383,-21.9206,6.03,94,100,12.47,IS,1685140727
86,sabang,5.8933,95.3214,28.31,73,81,6.99,ID,1685140728
87,ambovombe,-25.1667,46.0833,18.69,82,24,2.3,MG,1685140728
88,khovd,48.0056,91.6419,5.83,79,13,0.56,MN,1685140728
89,rimouski,48.4488,-68.524,15.1,65,84,5.12,CA,1685140561
90,ta`u,-14.2336,-169.5144,28.19,75,45,6.37,AS,1685140728
91,bartica,6.4,-58.6167,27.18,98,97,1.54,GY,1685140728
92,san felipe jalapa de diaz,18.0667,-96.5333,29.73,68,76,2.72,MX,1685140728
93,dhuusamarreeb,5.535,46.3861,26.07,68,76,7.94,SO,1685140729
94,st. john's,47.5649,-52.7093,10.66,97,100,5.14,CA,1685140729
95,nur-sultan,51.1801,71.446,6.97,53,0,3.0,KZ,1685140729
96,san patricio,28.017,-97.5169,30.97,56,93,4.7,US,1685140729
97,tura,25.5198,90.2201,20.84,92,63,1.31,IN,1685140729
98,forbes,-33.3833,148.0167,7.35,71,5,1.41,AU,1685140729
99,saint-joseph,-21.3667,55.6167,20.26,84,100,4.74,RE,1685140729
100,georgetown,5.4112,100.3354,25.97,86,20,1.54,MY,1685140581
101,punta del este,-34.9667,-54.95,17.2,88,20,4.12,UY,1685140681
102,pisco,-13.7,-76.2167,22.03,68,0,7.72,PE,1685140730
103,bam,29.106,58.357,26.9,33,38,2.78,IR,1685140730
104,yung shue wan,22.2333,114.1167,27.04,87,27,0.45,HK,1685140730
105,tazacorte,28.629,-17.9293,19.54,78,0,3.09,ES,1685140730
106,penzance,50.1186,-5.5371,12.65,82,4,5.25,GB,1685140576
107,port hedland,-20.3167,118.5667,19.03,32,62,5.66,AU,1685140730
108,francistown,-21.17,27.5079,18.16,40,4,3.29,BW,1685140730
109,lukolela,-1.0605,17.1821,22.7,90,100,1.33,CD,1685140730
110,nuuk,64.1835,-51.7216,1.48,77,100,11.79,GL,1685140730
111,perry,37.2506,-83.1999,25.1,58,84,2.29,US,1685140506
112,natal,-5.795,-35.2094,27.12,89,75,4.12,BR,1685140434
113,nogliki,51.8333,143.1667,9.62,79,100,0.28,RU,1685140731
114,codrington,-38.2667,141.9667,11.06,75,100,4.95,AU,1685140731
115,kone,-21.0595,164.8658,21.2,74,91,0.38,NC,1685140731
116,ceeldheer,3.8488,47.1806,27.16,77,26,6.57,SO,1685140731
117,armacao de buzios,-22.7469,-41.8817,24.03,79,0,7.98,BR,1685140731
118,altamira,-3.2033,-52.2064,25.9,77,75,1.21,BR,1685140731
119,acarau,-2.8856,-40.12,25.74,87,97,5.04,BR,1685140732
120,gornopravdinsk,60.05,69.9,14.1,59,98,1.61,RU,1685140732
121,simanggang,1.2472,111.4528,23.99,94,97,0.0,MY,1685140732
122,aykhal,66.0,111.5,1.6,99,100,2.51,RU,1685140732
123,figuig (centre),32.1089,-1.2286,23.39,12,14,3.75,MA,1685140732
124,ambodifotatra,-16.9833,49.85,24.84,74,49,7.56,MG,1685140733
125,umm qasr,30.0405,47.9168,29.93,31,0,3.33,IQ,1685140733
126,sarupathar,26.1984,93.8094,20.79,96,50,0.52,IN,1685140733
127,ascension,30.2169,-90.9001,31.13,43,75,2.57,US,1685140733
128,westport,41.1415,-73.3579,22.93,33,0,5.14,US,1685140733
129,santa cruz de barahona,18.2085,-71.1008,29.9,70,20,7.2,DO,1685140733
130,ulety,51.3572,112.4849,3.95,62,44,2.09,RU,1685140733
131,ghat,24.9647,10.1728,25.13,18,35,4.59,LY,1685140733
132,bobo-dioulasso,11.1771,-4.2979,30.25,62,57,1.54,BF,1685140734
133,kavalerovo,44.2661,135.0572,19.92,52,49,1.47,RU,1685140734
134,labrador city,52.9463,-66.9114,14.95,33,75,5.66,CA,1685140734
135,joshimath,30.5667,79.5667,13.48,82,100,1.37,IN,1685140734
136,kingston,17.997,-76.7936,30.53,75,20,4.12,JM,1685140450
137,sinabang,2.4803,96.3801,26.34,83,94,2.34,ID,1685140734
138,plouzane,48.3833,-4.6167,13.03,82,0,6.17,FR,1685140734
139,collie,-33.3667,116.15,4.85,90,0,0.74,AU,1685140734
140,talnakh,69.4865,88.3972,3.45,85,80,4.42,RU,1685140735
141,avarua,-21.2078,-159.775,23.03,94,97,2.06,CK,1685140735
142,callao,-12.0667,-77.15,23.73,73,75,7.72,PE,1685140735
143,sint michiel liber,12.15,-68.9833,27.9,94,20,4.63,CW,1685140735
144,hannibal,39.7084,-91.3585,25.51,16,0,3.09,US,1685140492
145,mount ivy,41.1868,-74.0349,22.5,36,4,1.96,US,1685140735
146,icheu,7.7067,6.7718,26.49,89,78,1.63,NG,1685140735
147,alo,7.4178,6.7371,25.83,91,65,1.93,NG,1685140735
148,taoudenni,22.6783,-3.9836,29.9,31,97,5.29,ML,1685140735
149,padang,-0.9492,100.3543,25.68,87,100,1.17,ID,1685140736
150,afaahiti,-17.75,-149.2833,28.92,76,77,6.29,PF,1685140736
151,lazaro cardenas,17.9583,-102.2,30.32,58,55,3.44,MX,1685140736
152,bel ombre,-4.6167,55.4167,27.91,69,40,8.23,SC,1685140736
153,udachny,66.4167,112.4,3.03,80,100,4.31,RU,1685140736
154,stanley,54.868,-1.6985,13.07,88,82,1.93,GB,1685140736
155,muswellbrook,-32.2667,150.9,9.63,73,1,1.69,AU,1685140736
156,al wajh,26.2455,36.4525,27.97,57,0,1.54,SA,1685140736
157,nadym,65.5333,72.5167,13.29,61,65,7.89,RU,1685140737
158,okha,53.5739,142.9478,4.41,90,100,2.19,RU,1685140737
159,juan griego,11.0817,-63.9655,31.07,70,56,8.23,VE,1685140737
160,tahe,52.3333,124.7333,4.4,98,100,2.3,CN,1685140737
161,fort bragg,35.139,-79.006,19.32,44,20,7.72,US,1685140729
162,igarka,67.4667,86.5833,5.71,83,30,4.17,RU,1685140737
163,bryan,30.6744,-96.37,31.86,36,0,2.57,US,1685140737
164,arraial do cabo,-22.9661,-42.0278,22.92,83,0,5.66,BR,1685140737
165,farafangana,-22.8167,47.8333,20.16,90,81,0.9,MG,1685140738
166,rovaniemi,66.5,25.7167,3.67,70,0,2.06,FI,1685140738
167,idri,27.5,13.2667,23.51,37,1,8.51,LY,1685140738
168,mount vernon,40.9126,-73.8371,23.8,32,20,5.66,US,1685140738
169,weno,7.4515,151.8468,28.97,79,100,2.57,FM,1685140738
170,armstrong,-32.7822,-61.6022,15.92,91,80,3.91,AR,1685140738
171,crescent city,41.756,-124.2018,14.3,86,100,2.57,US,1685140738
172,williams lake,52.1415,-122.1445,28.92,28,40,4.63,CA,1685140555
173,nar'yan-mar,67.6713,53.087,7.9,64,20,6.91,RU,1685140738
174,magadan,59.5667,150.8,11.41,76,57,0.48,RU,1685140739
175,puerto ayora,-0.7393,-90.3518,29.98,90,71,2.68,EC,1685140739
176,susuman,62.7833,148.1667,5.3,58,10,3.0,RU,1685140739
177,kayangel,8.0823,134.7173,28.85,81,94,12.64,PW,1685140739
178,mount isa,-20.7333,139.5,9.87,46,2,3.6,AU,1685140739
179,kennett square,39.8468,-75.7116,23.31,35,0,0.0,US,1685140630
180,murzuq,25.9155,13.9184,24.77,21,82,6.1,LY,1685140739
181,norfolk,42.1668,-71.2495,21.0,50,0,4.63,US,1685140489
182,sitka,57.0531,-135.33,8.94,81,75,4.12,US,1685140600
183,koumra,8.9126,17.5539,27.23,62,96,1.55,TD,1685140739
184,malanville,11.8685,3.3899,31.83,50,83,5.47,BJ,1685140740
185,colonia,50.9333,6.95,12.2,66,0,2.06,DE,1685140740
186,san antonio de pale,-1.4014,5.6325,26.13,84,82,7.95,GQ,1685140740
187,bay roberts,47.5999,-53.2648,10.86,96,100,1.79,CA,1685140740
188,rosarito,32.3333,-117.0333,21.46,69,2,5.87,MX,1685140740
189,san rafael del yuma,18.4299,-68.6739,30.11,76,7,3.54,DO,1685140740
190,luderitz,-26.6481,15.1594,12.1,58,45,4.57,NA,1685140740
191,ryotsu-minato,38.0833,138.4333,18.71,81,70,2.76,JP,1685140740
192,bengkulu,-3.8004,102.2655,24.66,92,98,1.61,ID,1685140612
193,onverwacht,5.5833,-55.1833,25.92,100,75,2.06,SR,1685140741
194,las heras,-46.5419,-68.9359,1.43,38,16,3.43,AR,1685140741
195,sogndal,61.2283,7.1003,9.21,75,100,2.06,NO,1685140741
196,wattens,47.2722,11.5993,14.95,67,75,1.03,AT,1685140741
197,wynyard,-41.0,145.7167,9.43,79,93,5.3,AU,1685140741
198,margate,51.3813,1.3862,11.61,81,14,4.02,GB,1685140741
199,mili,6.0815,171.735,27.83,78,100,5.68,MH,1685140742
200,zhaotong,27.3167,103.7167,14.64,87,13,1.06,CN,1685140742
201,smithers,54.7804,-127.1743,18.18,52,75,1.03,CA,1685140742
202,yulinshi,38.2906,109.7494,13.13,80,100,4.2,CN,1685140742
203,edd,13.9297,41.6925,31.49,60,14,6.57,ER,1685140742
204,badger,64.8,-147.5333,17.14,64,100,7.2,US,1685140742
205,kosan,38.8558,127.4181,19.51,69,95,1.85,KP,1685140742
206,changping,40.2186,116.2197,19.8,60,100,2.86,CN,1685140743
207,newnham,-41.3833,147.1333,10.73,83,75,5.14,AU,1685140743
208,plettenberg bay,-34.0527,23.3716,11.89,63,0,2.54,ZA,1685140743
209,neftcala,39.3742,49.2472,21.29,73,86,4.3,AZ,1685140744
210,namibe,-15.1961,12.1522,19.43,80,0,3.3,AO,1685140744
211,hilo,19.7297,-155.09,26.82,75,75,3.6,US,1685140470
212,am timan,11.0297,20.2827,31.3,45,64,4.38,TD,1685140744
213,vorgashor,67.5833,63.95,15.21,81,98,5.85,RU,1685140745
214,hamilton,39.1834,-84.5333,25.05,22,0,7.2,US,1685140745
215,constantia,44.1833,28.65,16.5,90,62,1.91,RO,1685140519
216,smara,26.7384,-11.6719,20.5,56,99,5.45,EH,1685140745
217,dibba al-hisn,25.6196,56.2729,27.1,49,10,6.55,AE,1685140745
218,ellenabad,29.45,74.65,24.99,67,96,7.03,IN,1685140746
219,oranjemund,-28.55,16.4333,11.34,79,1,2.33,NA,1685140746
220,kovdor,67.5662,30.4758,2.27,68,63,2.43,RU,1685140746
221,robertsport,6.7533,-11.3686,27.16,80,91,3.1,LR,1685140746
222,nagqu,31.5,92.0,3.42,60,98,3.62,CN,1685140746
223,sidi bou ali,35.9567,10.4731,19.84,72,20,3.09,TN,1685140746
224,eyl,7.9803,49.8164,27.45,78,96,8.29,SO,1685140747
225,hastings,50.8552,0.5729,11.62,43,18,7.78,GB,1685140747
226,isangel,-19.55,169.2667,24.65,64,6,2.74,VU,1685140668
227,ar ruways,24.1103,52.7306,30.72,50,71,1.39,AE,1685140747
228,north las vegas,36.1989,-115.1175,33.5,9,0,4.63,US,1685140747
229,nalut,30.3333,10.85,17.42,63,7,5.51,LY,1685140747
230,zhuzhou,27.8333,113.15,26.07,89,51,2.01,CN,1685140747
231,nadi,-17.8,177.4167,26.0,57,20,1.03,FJ,1685140748
232,sur,22.5667,59.5289,33.31,45,1,7.29,OM,1685140748
233,daru,-9.0763,143.2092,25.72,88,100,5.9,PG,1685140748
234,poso,-1.3959,120.7524,27.97,70,95,1.27,ID,1685140748
235,pontianak,-0.0333,109.3333,25.99,94,20,0.0,ID,1685140748
236,kabanjahe,3.1001,98.4908,17.01,97,95,1.75,ID,1685140749
237,luganville,-15.5333,167.1667,26.33,54,16,2.23,VU,1685140749
238,al ghayzah,16.2079,52.176,28.97,70,81,3.09,YE,1685140749
239,anadyr,64.75,177.4833,4.28,81,75,6.0,RU,1685140749
240,atafu village,-8.5421,-172.5159,28.36,71,57,2.13,TK,1685140749
241,kavaratti,10.5669,72.642,29.36,73,12,3.95,IN,1685140749
242,kapuskasing,49.4169,-82.4331,28.05,23,100,5.14,CA,1685140518
243,kirkwall,58.9848,-2.9587,11.09,87,75,3.09,GB,1685140750
244,arvayheer,46.2639,102.775,4.36,85,62,1.41,MN,1685140750
245,ocean shores,46.9737,-124.1563,20.21,87,20,7.2,US,1685140750
246,bhatgaon,21.15,81.7,29.9,33,1,2.69,IN,1685140750
247,kotel,42.8833,26.45,12.9,93,99,2.43,BG,1685140750
248,karabudakhkent,42.7087,47.5673,17.7,88,100,3.0,RU,1685140750
249,kodiak,57.79,-152.4072,8.73,71,100,4.63,US,1685140751
250,midvagur,62.0511,-7.1939,9.46,100,100,6.17,FO,1685140751
251,flying fish cove,-10.4217,105.6791,25.82,88,100,5.14,CX,1685140751
252,houma,29.5958,-90.7195,29.44,45,0,4.12,US,1685140751
253,mizdah,31.4451,12.9801,15.95,79,5,3.36,LY,1685140751
254,turinskaya sloboda,57.6232,64.3858,14.3,65,66,2.67,RU,1685140756
255,yima,34.7381,111.8839,16.13,94,100,2.28,CN,1685140756
256,petropavlovsk-kamchatsky,53.0452,158.6483,12.33,47,40,4.0,RU,1685140757
257,fortuna,40.5982,-124.1573,17.74,79,20,5.14,US,1685140757
258,howrah,22.5892,88.3103,24.0,88,20,3.09,IN,1685140757
259,nova vicosa,-17.8919,-39.3719,23.6,73,36,4.31,BR,1685140757
260,zhongxing,33.7039,118.6792,21.81,91,99,4.23,CN,1685140757
261,uturoa,-16.7333,-151.4333,27.58,73,25,7.08,PF,1685140757
262,isafjordur,66.0755,-23.124,3.1,99,100,5.89,IS,1685140758
263,vikulovo,56.8167,70.6107,10.45,61,79,1.0,RU,1685140758
264,ertil',51.8406,40.8056,14.54,94,91,2.96,RU,1685140758
265,kristinestad,62.2743,21.376,6.72,72,44,6.83,FI,1685140758
266,carnarvon,-24.8667,113.6333,18.53,42,100,6.28,AU,1685140694
267,qaqortoq,60.7167,-46.0333,1.32,88,100,0.06,GL,1685140758
268,al hadd,26.2456,50.6542,31.99,62,0,2.06,BH,1685140759
269,yamada,39.4667,141.95,19.15,67,13,2.03,JP,1685140759
270,partanna,37.7278,12.8885,18.1,81,89,2.24,IT,1685140759
271,coquimbo,-29.9533,-71.3436,15.85,77,0,4.63,CL,1685140711
272,alofi,-19.0595,-169.9187,24.94,73,100,5.14,NU,1685140759
273,tyukalinsk,55.8732,72.1967,9.44,62,59,0.35,RU,1685140759
274,vilyuysk,63.7553,121.6247,6.9,54,65,3.85,RU,1685140759
275,kalabo,-14.97,22.6814,16.2,37,0,1.79,ZM,1685140760
276,mount pleasant,32.7941,-79.8626,15.17,96,40,6.69,US,1685140760
277,tolanaro,-25.0319,46.9987,21.04,88,20,6.17,MG,1685140760
278,turpan,42.9333,89.1667,22.61,23,53,0.62,CN,1685140760
279,urzhar,47.093,81.6294,12.23,61,33,1.88,KZ,1685140760
280,galveston,29.3669,-94.9669,32.06,47,0,3.6,US,1685140711
281,enewetak,11.3474,162.3373,27.81,78,97,6.85,MH,1685140761
282,kokoda,-8.8785,147.7407,27.48,78,55,0.41,PG,1685140761
283,guerrero negro,27.9769,-114.0611,18.36,63,98,9.24,MX,1685140761
284,mutare,-18.9707,32.6709,13.17,83,0,1.06,ZW,1685140761
285,manaure,11.7751,-72.4445,28.62,75,99,3.48,CO,1685140761
286,nola,40.922,14.5329,20.91,89,100,1.63,IT,1685140761
287,mount pearl,47.5166,-52.7813,10.19,97,100,5.14,CA,1685140519
288,lucea,18.451,-78.1736,29.92,69,8,3.6,JM,1685140761
289,itoman,26.1247,127.6694,24.01,88,75,4.12,JP,1685140762
290,xinyuan,37.3,99.0,0.95,96,100,1.25,CN,1685140762
291,bamboo flat,11.7,92.7167,27.05,89,20,1.03,IN,1685140762
292,charters towers,-20.1,146.2667,17.25,36,2,7.1,AU,1685140762
293,fort mcmurray,56.7268,-111.381,22.77,35,40,3.09,CA,1685140653
294,kwaksan,39.6875,125.0828,16.76,76,99,2.87,KP,1685140762
295,salinopolis,-0.6136,-47.3561,26.37,85,54,4.44,BR,1685140538
296,pangody,65.85,74.4859,12.18,53,92,8.04,RU,1685140517
297,bodo,67.28,14.405,3.03,88,75,6.17,NO,1685140522
298,mejit,10.2753,170.8646,25.6,84,100,9.17,MH,1685140763
299,kapa'a,22.0752,-159.319,27.18,65,20,6.17,US,1685140763
300,cheste,39.4833,-0.6833,17.12,88,20,2.57,ES,1685140763
301,riberalta,-10.9833,-66.1,29.11,74,75,0.0,BO,1685140763
302,quellon,-43.1167,-73.6167,7.14,76,0,2.57,CL,1685140763
303,honggang,46.4667,124.8667,18.32,17,92,4.2,CN,1685140763
304,hammerfest,70.6634,23.6821,1.25,86,75,9.26,NO,1685140763
305,beichengqu,40.4394,113.1536,14.28,61,100,4.67,CN,1685140764
306,sparti,37.0733,22.4297,19.42,81,89,1.77,GR,1685140764
307,trail,49.0998,-117.7022,22.55,46,70,0.81,CA,1685140764
308,fale old settlement,-9.3852,-171.2468,28.55,70,63,1.93,TK,1685140764
309,vernon,50.2581,-119.2691,29.61,28,0,0.51,CA,1685140513
310,port saint john's,-31.6229,29.5448,14.76,53,53,2.88,ZA,1685140764
311,taza,34.25,-3.75,20.33,60,2,0.7,MA,1685140764
312,carepa,7.7585,-76.6525,29.88,79,75,3.09,CO,1685140765
313,chirnogi,44.1167,26.5667,19.25,88,95,1.39,RO,1685140765
314,bubaque,11.2833,-15.8333,27.75,79,87,6.06,GW,1685140765
315,lander,42.833,-108.7307,14.45,62,0,8.23,US,1685140765
316,harper,4.375,-7.7169,25.91,85,84,2.37,LR,1685140765
317,kerikeri,-35.2268,173.9474,17.73,96,100,3.18,NZ,1685140765
318,isla mujeres,21.2311,-86.731,29.03,62,28,6.58,MX,1685140766
319,elverum,60.8819,11.5623,4.94,55,45,0.43,NO,1685140766
320,yuzhno-kurilsk,44.0306,145.8556,11.73,89,99,6.79,RU,1685140766
321,shimoda,34.6667,138.95,21.72,67,99,1.04,JP,1685140766
322,rifle,39.5347,-107.7831,27.33,10,20,6.17,US,1685140766
323,tangalle,6.024,80.7911,26.15,88,0,5.17,LK,1685140766
324,el obeid,13.1842,30.2167,31.82,23,83,2.13,SD,1685140767
325,jacutinga,-22.2856,-46.6122,15.14,80,21,2.71,BR,1685140767
326,mayya,61.7333,130.2811,5.62,44,39,2.83,RU,1685140767
327,labytnangi,66.6572,66.4183,16.24,75,97,3.48,RU,1685140767
328,alibag,18.6411,72.8792,30.04,73,2,2.08,IN,1685140767
329,sumberpucung,-8.1586,112.4829,20.53,96,69,0.81,ID,1685140767
330,imbituba,-28.24,-48.6703,20.41,93,78,5.38,BR,1685140768
331,vilyuchinsk,52.9306,158.4028,13.15,63,100,2.14,RU,1685140666
332,chinchilla,-26.75,150.6333,11.26,55,0,4.14,AU,1685140768
333,luanda,-8.8368,13.2343,25.0,83,75,2.06,AO,1685140768
334,piacabucu,-10.4056,-36.4344,24.28,89,27,3.26,BR,1685140768
335,patterson,37.4716,-121.1297,27.21,33,2,3.04,US,1685140768
336,gamba,-2.65,10.0,25.13,88,100,3.38,GA,1685140769
337,peace river,56.2501,-117.286,24.17,31,20,2.06,CA,1685140659
338,tazovsky,67.4667,78.7,6.86,73,85,6.35,RU,1685140769
339,sarangani,5.4033,125.4636,28.57,76,99,8.28,PH,1685140769
340,puerto baquerizo moreno,-0.9,-89.6,28.55,74,40,4.12,EC,1685140769
341,jinghong,21.991,100.7341,21.92,68,0,0.95,CN,1685140770
342,koungou,-12.7336,45.2042,23.84,83,0,1.03,YT,1685140770
343,ust'-ilimsk,58.0006,102.6619,6.32,75,15,1.76,RU,1685140770
344,antonio enes,-16.2325,39.9086,21.27,70,0,1.48,MZ,1685140770
345,bowen,-20.0167,148.2333,20.41,64,2,3.9,AU,1685140770
346,novyy urengoy,66.0833,76.6333,9.0,61,61,6.47,RU,1685140770
347,tevriz,57.509,72.4042,9.46,62,94,1.5,RU,1685140771
348,beloyarskiy,63.7119,66.6722,13.8,89,98,3.06,RU,1685140771
349,lihue,21.9789,-159.3672,26.77,65,20,6.17,US,1685140771
350,gadzhiyevo,69.2551,33.3362,4.44,72,100,7.72,RU,1685140771
351,mpika,-11.8343,31.4529,12.67,76,5,1.75,ZM,1685140771
352,ust-nera,64.5667,143.2,5.8,59,20,2.34,RU,1685140771
353,kloulklubed,7.0419,134.2556,25.28,80,100,11.76,PW,1685140771
354,punta arenas,-53.15,-70.9167,3.06,75,75,6.69,CL,1685140772
355,bayanhongor,46.7167,100.1167,3.62,73,21,1.32,MN,1685140772
356,crane,31.3974,-102.3501,27.76,52,91,9.77,US,1685140772
357,namsos,64.4662,11.4957,6.03,87,100,1.03,NO,1685140772
358,jefferson city,38.5767,-92.1735,25.95,22,0,4.12,US,1685140772
359,manggar,-2.8833,108.2667,27.94,76,97,4.63,ID,1685140772
360,puerto deseado,-47.7503,-65.8938,4.76,54,23,13.12,AR,1685140772
361,aman garh,34.0058,71.93,22.34,47,0,1.37,PK,1685140773
362,sharjah,25.3573,55.4033,31.99,40,0,3.09,AE,1685140487
363,cidade velha,14.9167,-23.6167,23.26,83,20,10.29,CV,1685140773
364,belyy yar,53.6039,91.3903,2.94,81,0,2.0,RU,1685140773
365,lycksele,64.5954,18.6735,2.93,65,34,3.6,SE,1685140773
366,progreso,21.2833,-89.6667,32.06,63,0,5.4,MX,1685140773
367,tralee,52.2704,-9.7026,12.83,94,56,0.78,IE,1685140774
368,lautoka,-17.6167,177.4667,25.92,57,20,1.03,FJ,1685140774
369,churachandpur,24.3333,93.6667,16.55,98,9,0.62,IN,1685140774
370,molde,62.7375,7.1591,10.39,81,100,4.63,NO,1685140774
371,goondiwindi,-28.55,150.3167,11.25,60,0,3.9,AU,1685140774
372,mary,37.0,62.5,21.17,15,76,3.49,TM,1685140774
373,acapulco de juarez,16.8634,-99.8901,31.9,62,40,2.57,MX,1685140693
374,paysandu,-32.3214,-58.0756,17.56,88,50,5.19,UY,1685140694
375,basse-terre,16.1667,-61.6667,26.58,78,40,4.12,GP,1685140748
376,cadale,2.7603,46.3222,27.2,77,17,7.29,SO,1685140775
377,urangan,-25.3,152.9,15.13,61,0,4.48,AU,1685140775
378,center,31.5107,-96.4247,31.22,39,0,2.06,US,1685140775
379,buka,40.8108,69.1986,18.79,29,0,1.31,UZ,1685140775
380,nizhniy kuranakh,58.8353,125.4869,7.35,52,98,3.57,RU,1685140775
381,yanam,16.7333,82.2167,26.76,70,5,1.78,IN,1685140775
382,whitehorse,60.7161,-135.0538,13.34,31,75,10.8,CA,1685140775
383,happy valley-goose bay,53.3168,-60.3315,12.17,47,75,4.12,CA,1685140776
384,tulun,54.5611,100.5792,4.6,76,97,1.19,RU,1685140776
385,emiliano zapata,18.8333,-99.1833,27.59,57,75,2.57,MX,1685140776
386,utrik,11.2278,169.8474,26.48,77,100,7.78,MH,1685140776
387,ballina,-28.8667,153.5667,15.99,68,93,6.54,AU,1685140776
388,haiku-pauwela,20.9219,-156.3051,27.01,62,40,10.29,US,1685140776
389,safotu,-13.4513,-172.4018,27.36,84,75,2.99,WS,1685140776
390,emerald,-23.5333,148.1667,13.52,50,0,8.19,AU,1685140777
391,perros-guirec,48.8145,-3.4396,13.05,86,0,7.32,FR,1685140777
392,likiep,9.8251,169.3107,26.44,77,100,8.74,MH,1685140777
393,phan rang-thap cham,11.5667,108.9833,25.82,82,94,1.19,VN,1685140777
394,hutchinson,38.0608,-97.9298,28.18,34,20,6.69,US,1685140715
395,sterling,39.0062,-77.4286,23.17,38,75,3.6,US,1685140652
396,uspenskoye,44.8311,41.3927,13.91,94,38,1.64,RU,1685140777
397,juneau,58.3019,-134.4197,11.23,91,100,5.66,US,1685140776
398,island harbour,50.724,-1.2758,12.18,74,10,2.68,GB,1685140777
399,omaruru,-21.4333,15.9333,15.28,32,2,1.03,NA,1685140778
400,trogir,43.5125,16.2517,23.03,40,0,5.66,HR,1685140778
401,mglin,53.0591,32.8475,12.49,92,59,1.67,RU,1685140778
402,usinsk,65.9939,57.5281,10.52,79,73,7.84,RU,1685140778
403,hadibu,12.65,54.0333,29.37,74,31,3.16,YE,1685140778
404,alindao,5.0267,21.2088,22.46,90,100,1.74,CF,1685140778
405,havre,49.5833,0.3333,12.22,87,0,5.14,FR,1685140778
406,kununurra,-15.7667,128.7333,18.99,48,10,2.57,AU,1685140578
407,fort st. john,56.2499,-120.8529,24.94,25,40,2.57,CA,1685140779
408,turkmenbasy,40.0222,52.9552,20.43,83,0,5.14,TM,1685140779
409,shetpe,44.1667,52.1167,23.79,38,100,6.28,KZ,1685140779
410,kokkola,63.8385,23.1307,8.09,72,75,2.06,FI,1685140779
411,broome,42.2506,-75.833,20.21,32,0,3.09,US,1685140779
412,mancio lima,-7.6142,-72.8958,27.04,78,75,0.0,BR,1685140779
413,kinel'-cherkassy,53.4706,51.4743,19.67,46,100,3.19,RU,1685140779
414,ceres,37.5949,-120.9577,27.21,40,0,1.54,US,1685140779
415,le vauclin,14.5452,-60.8388,28.03,78,0,4.63,MQ,1685140779
416,laredo,27.5064,-99.5075,33.16,38,100,5.14,US,1685140698
417,milford haven,51.7128,-5.0341,11.81,86,30,3.55,GB,1685140780
418,zheshart,62.0731,49.5733,11.26,96,76,1.9,RU,1685140780
419,ilha de mocambique,-15.0342,40.7358,24.42,62,0,2.44,MZ,1685140780
420,revda,56.801,59.9303,14.97,61,41,1.21,RU,1685140780
421,dryden,49.7833,-92.7503,29.16,34,20,4.63,CA,1685140780
422,atotonilco el grande,20.2833,-98.6667,21.57,54,13,5.47,MX,1685140780
423,darwin,-12.4611,130.8418,22.72,64,20,4.63,AU,1685140780
424,brandon,27.9378,-82.2859,27.86,73,40,6.69,US,1685140755
425,yanykurgan,43.915,67.2481,21.56,24,0,2.86,KZ,1685140781
426,tromso,69.6496,18.957,1.01,80,75,5.14,NO,1685140781
427,iskateley,67.6803,53.1512,7.92,64,21,6.9,RU,1685140781
428,tateyama,34.9833,139.8667,18.96,63,100,2.64,JP,1685140781
429,nyurba,63.2842,118.3319,7.33,54,27,3.08,RU,1685140781
430,bilibino,68.0546,166.4372,10.89,25,100,3.3,RU,1685140781
431,zouerate,22.7187,-12.4521,21.08,70,100,3.16,MR,1685140781
432,gumla,23.05,84.55,22.57,63,1,0.94,IN,1685140782
433,cooper's town,26.8667,-77.5167,27.11,63,6,1.06,BS,1685140782
434,novomichurinsk,54.0384,39.7479,13.8,88,57,2.35,RU,1685140782
435,puerto san jose,13.9256,-90.8244,30.17,62,100,3.65,GT,1685140782
436,guiren,33.6697,118.1889,22.32,89,98,4.27,CN,1685140782
437,torquay,50.4638,-3.5143,13.29,85,10,0.45,GB,1685140760
438,olyokminsk,60.3736,120.4264,9.13,39,12,2.28,RU,1685140782
439,waingapu,-9.6567,120.2641,23.38,77,99,3.92,ID,1685140782
440,itambe,-15.245,-40.6244,19.29,81,63,1.92,BR,1685140783
441,viqueque,-8.8673,126.3658,23.53,76,65,0.84,TL,1685140783
442,tofol,5.3248,163.0078,27.01,82,91,7.57,FM,1685140783
443,khorugh,37.4897,71.553,7.28,67,0,0.54,TJ,1685140783
444,ngunut,-8.1058,112.0159,23.27,87,85,2.44,ID,1685140783
445,mahalapye,-23.1041,26.8142,18.49,33,88,1.74,BW,1685140783
446,richards bay,-28.783,32.0377,17.16,65,100,2.16,ZA,1685140783
447,vadso,70.0744,29.7487,3.49,70,0,6.69,NO,1685140783
448,taltal,-25.4,-70.4833,19.21,66,100,1.69,CL,1685140784
449,al mawsil al jadidah,36.3346,43.0978,26.09,43,31,2.96,IQ,1685140784
450,kavieng,-2.5744,150.7967,28.29,73,67,2.11,PG,1685140784
451,battambang,13.1027,103.1982,25.82,82,82,1.19,KH,1685140784
452,sao jose da coroa grande,-8.8978,-35.1478,24.99,87,3,3.62,BR,1685140784
453,alamogordo,32.8995,-105.9603,33.64,17,0,9.77,US,1685140605
454,el galpon,-25.3807,-64.6526,21.88,77,100,1.6,AR,1685140784
455,queenstown,-31.8976,26.8753,4.87,52,84,1.52,ZA,1685140784
456,bikenibeu village,1.3673,173.1241,30.98,74,20,2.57,KI,1685140785
457,palatka,29.6486,-81.6376,22.47,76,69,0.89,US,1685140742
458,harstad,68.799,16.5293,1.66,99,99,7.15,NO,1685140785
459,tanhacu,-14.0214,-41.2481,21.72,77,92,1.96,BR,1685140785
460,fuding,27.3273,120.214,23.5,97,100,1.12,CN,1685140785
461,coahuayana de hidalgo,18.7,-103.6583,31.35,53,30,3.3,MX,1685140785
462,maceio,-9.6658,-35.7353,24.69,94,75,4.63,BR,1685140785
463,ambatofinandrahana,-20.55,46.8,12.33,85,76,1.84,MG,1685140785
464,antsiranana,-12.2787,49.2917,24.04,80,6,6.75,MG,1685140786
465,sandnessjoen,66.0217,12.6316,3.14,87,100,2.68,NO,1685140786
466,ha'il,27.5219,41.6907,27.01,29,0,2.06,SA,1685140742
467,miyaly,48.8844,53.7836,21.8,29,84,4.14,KZ,1685140786
468,tamanrasset,22.785,5.5228,24.95,6,0,4.12,DZ,1685140786
469,karratha,-20.7377,116.8463,18.46,37,20,7.4,AU,1685140786
470,jutai,-5.1833,-68.9,24.96,91,98,0.86,BR,1685140791
471,broken hill,-31.95,141.4333,10.58,68,74,3.15,AU,1685140791
472,saint-pierre,-21.3393,55.4781,20.87,88,75,3.09,RE,1685140792
473,gaalkacyo,6.7697,47.4308,26.8,62,100,7.08,SO,1685140792
474,rantauprapat,2.1,99.8333,23.21,94,100,0.72,ID,1685140792
475,alice springs,-23.7,133.8833,0.75,80,0,4.18,AU,1685140792
476,devils lake,48.1128,-98.8651,28.99,40,20,10.29,US,1685140792
477,ivanteyevka,55.9711,37.9208,17.3,83,61,1.34,RU,1685140792
478,vorkuta,67.5,64.0,15.33,82,98,5.51,RU,1685140792
479,sao joao da barra,-21.6403,-41.0511,20.05,78,3,4.04,BR,1685140792
480,pitkyaranta,61.5734,31.4792,6.27,89,75,3.09,RU,1685140793
481,pinheiro,-2.5214,-45.0825,23.77,97,34,1.21,BR,1685140793
482,pointe aux piments,-20.0628,57.5131,23.74,78,100,6.47,MU,1685140793
483,alzamay,55.5562,98.6644,5.5,92,100,0.55,RU,1685140793
484,caspe,41.234,-0.0395,17.06,78,77,3.35,ES,1685140793
485,holualoa,19.6228,-155.9522,25.91,76,20,4.12,US,1685140793
486,walvis bay,-22.9575,14.5053,12.83,87,51,3.09,NA,1685140793
487,palmer,42.1584,-72.3287,22.34,21,20,4.63,US,1685140793
488,suva,-18.1416,178.4415,25.53,61,1,1.81,FJ,1685140793
489,barcelos,41.5388,-8.6151,17.73,92,49,1.63,PT,1685140794
490,huazhou,21.6333,110.5833,26.15,89,52,4.24,CN,1685140794
491,villa gesell,-37.2639,-56.973,13.37,68,0,4.61,AR,1685140794
492,la ronge,55.1001,-105.2842,16.14,67,100,2.06,CA,1685140794
493,twon-brass,4.3151,6.2418,27.89,81,89,6.14,NG,1685140794
494,gizo,-8.103,156.8419,28.48,74,82,1.97,SB,1685140794
495,wigan,53.5333,-2.6167,15.31,73,65,1.08,GB,1685140794
496,chui,-33.6971,-53.4616,18.04,97,100,2.28,UY,1685140794
497,annandale,38.8304,-77.1964,22.9,39,0,6.17,US,1685140795
498,cold lake,54.4502,-110.2017,21.97,33,20,2.57,CA,1685140795
499,sauk rapids,45.5919,-94.1661,27.18,21,0,5.14,US,1685140605
500,erechim,-27.6342,-52.2739,17.31,75,66,2.02,BR,1685140795
501,riviere-du-loup,47.8304,-69.5342,16.15,44,79,3.6,CA,1685140795
502,goundi,9.3627,17.366,27.01,63,84,1.16,TD,1685140795
503,mutoko,-17.397,32.2268,13.32,70,0,1.26,ZW,1685140795
504,hayvoron,48.3396,29.8679,14.52,80,27,3.17,UA,1685140795
505,pilsting,48.7,12.65,16.32,61,96,2.48,DE,1685140795
506,mount gambier,-37.8333,140.7667,12.31,68,100,4.26,AU,1685140796
507,mikun',62.3547,50.0771,11.18,96,52,2.03,RU,1685140796
508,shakawe,-18.3667,21.85,16.93,35,1,2.52,BW,1685140796
509,mukalla,14.5425,49.1242,28.76,76,19,2.56,YE,1685140796
510,kenai,60.5544,-151.2583,9.52,81,100,4.63,US,1685140796
511,sinop,41.7711,34.8709,13.09,91,98,2.18,TR,1685140796
512,aquiraz,-3.9014,-38.3911,28.05,85,94,4.25,BR,1685140796
513,batumi,41.6416,41.6359,16.99,94,100,1.03,GE,1685140796
514,mar del plata,-38.0023,-57.5575,14.49,65,0,7.2,AR,1685140797
515,tual,-5.6667,132.75,27.37,71,14,7.12,ID,1685140797
516,new norfolk,-42.7826,147.0587,12.62,67,100,1.79,AU,1685140797
517,akureyri,65.6835,-18.0878,8.96,66,75,4.63,IS,1685140797
518,amga,60.8953,131.9608,10.14,55,3,2.56,RU,1685140797
519,kuanda,56.3161,116.0806,7.49,55,100,2.75,RU,1685140797
520,xichang,27.8964,102.2634,18.6,69,34,1.66,CN,1685140756
521,pacific grove,36.6177,-121.9166,18.01,76,20,5.14,US,1685140797
522,lakatoro,-16.0999,167.4164,26.15,52,42,3.06,VU,1685140798
523,cabo san lucas,22.8909,-109.9124,33.61,54,75,7.72,MX,1685140798
524,kotlas,61.2611,46.6556,12.12,92,47,1.89,RU,1685140798
525,machico,32.7,-16.7667,19.35,82,40,1.54,PT,1685140798
526,hornostayivka,47.0078,33.729,18.64,78,86,1.58,UA,1685140798
527,novi pazar,43.1367,20.5122,12.27,93,95,1.32,RS,1685140798
528,mil'kovo,55.6078,37.7956,17.22,80,33,2.13,RU,1685140798
529,sao gabriel da cachoeira,-0.1303,-67.0892,29.89,70,20,1.03,BR,1685140799
530,el jadid,33.2549,-8.506,19.47,76,51,1.48,MA,1685140799
531,tocopilla,-22.092,-70.1979,19.96,74,100,4.01,CL,1685140799
532,hwangju-up,38.6703,125.7761,18.56,63,100,2.11,KP,1685140799
533,izyum,49.2088,37.2485,15.75,92,100,0.44,UA,1685140799
534,katsuura,35.1333,140.3,19.01,62,100,2.65,JP,1685140799
535,saint-philippe,-21.3585,55.7679,20.77,86,100,4.38,RE,1685140799
536,aden,12.7794,45.0367,30.02,72,6,5.89,YE,1685140799
537,trincomalee,8.5711,81.2335,27.72,81,1,7.5,LK,1685140800
538,xiaoweizhai,26.1903,107.5125,21.81,90,94,4.84,CN,1685140800
539,kabinda,-6.1333,24.4833,22.65,55,21,2.22,CD,1685140800
540,ojai,34.4481,-119.2429,20.38,71,27,4.43,US,1685140800
541,aasiaat,68.7098,-52.8699,0.71,95,100,12.84,GL,1685140800
542,rakitnoye,50.8389,35.8515,13.59,84,47,2.73,RU,1685140801
543,port blair,11.6667,92.75,27.02,89,20,1.03,IN,1685140801
544,necochea,-38.5473,-58.7368,11.99,67,24,5.31,AR,1685140678
545,san julian,21.0167,-102.1667,30.59,13,60,1.76,MX,1685140801
546,zuni pueblo,35.0725,-108.8506,25.35,10,3,12.97,US,1685140801
547,ciutadella,40.0011,3.8414,18.45,73,1,2.01,ES,1685140801
548,solleftea,63.1667,17.2667,3.89,74,11,3.69,SE,1685140801
549,contai,21.7786,87.7536,27.74,90,3,2.38,IN,1685140801
550,shiqian,27.5225,108.2281,24.0,92,97,1.95,CN,1685140802
551,pita,10.8333,-12.5833,24.07,91,99,0.33,GN,1685140802
552,the pas,53.8251,-101.2541,10.01,100,100,3.09,CA,1685140802
553,barmer,25.75,71.3833,26.11,83,5,9.08,IN,1685140802
554,yantzaza,-3.8278,-78.7594,21.73,96,32,0.2,EC,1685140803
555,east ballina,-28.8667,153.5833,16.0,69,94,7.0,AU,1685140803
556,kusa,55.3383,59.4406,14.21,65,39,1.44,RU,1685140803
557,anloga,5.7947,0.8973,28.41,80,100,6.34,GH,1685140804
558,khamis mushait,18.3064,42.7292,21.34,46,0,0.0,SA,1685140804
559,dudinka,69.4058,86.1778,3.68,86,93,7.08,RU,1685140804
560,xapuri,-10.6517,-68.5044,24.08,93,48,0.76,BR,1685140804
561,capayan,-28.761,-66.0502,23.78,76,78,1.75,AR,1685140805
562,turgen,43.4006,77.5933,13.07,44,19,3.64,KZ,1685140805
563,mirny,62.5353,113.9611,7.91,39,8,0.89,RU,1685140805
564,beyneu,45.3167,55.2,22.47,25,97,4.53,KZ,1685140805
565,pahrump,36.2083,-115.9839,29.72,14,2,3.58,US,1685140651
566,at taj,24.2049,23.2857,28.16,15,79,4.7,LY,1685140806
567,zakynthos,37.7914,20.8953,19.24,78,76,2.23,GR,1685140806
568,kuta,-8.7233,115.1723,25.97,78,20,3.6,ID,1685140806
569,sandpoint,48.2766,-116.5533,24.82,50,0,4.63,US,1685140806
570,pudasjarvi,65.3833,26.9167,2.13,79,29,2.21,FI,1685140806
571,nyala,12.05,24.8833,32.27,31,72,5.8,SD,1685140807
572,lorengau,-2.0226,147.2712,28.1,80,61,2.6,PG,1685140807
573,hasaki,35.7333,140.8333,20.22,63,98,3.04,JP,1685140807
574,saint-francois,46.4154,3.9054,15.69,82,0,0.0,FR,1685140807
575,portland,45.5234,-122.6762,30.93,38,20,5.66,US,1685140668
576,khandyga,62.6667,135.6,7.24,57,81,2.06,RU,1685140808
577,swakopmund,-22.6833,14.5333,12.77,85,29,0.45,NA,1685140808
578,kosh-agach,50.0,88.6667,2.62,56,62,0.99,RU,1685140808
579,lerwick,60.1545,-1.1494,10.0,94,99,9.27,GB,1685140808
580,maizuru,35.45,135.3333,20.75,74,100,2.08,JP,1685140808
581,zyrya,40.3661,50.2917,20.05,67,61,2.57,AZ,1685140809
582,tongliao,43.6125,122.2653,18.97,57,100,4.48,CN,1685140757
583,sisimiut,66.9395,-53.6735,1.29,77,100,16.48,GL,1685140809
584,webuye,0.6075,34.7697,16.16,90,75,2.08,KE,1685140809
585,salym,60.0625,71.4789,12.7,55,100,1.98,RU,1685140809
586,tosontsengel,48.7567,98.2839,2.76,67,75,4.04,MN,1685140810
587,cisternino,40.7445,17.4243,20.02,80,7,6.62,IT,1685140810
588,novo aripuana,-5.1206,-60.3797,26.38,82,91,0.72,BR,1685140810
589,stornoway,58.2093,-6.3865,11.98,90,75,2.57,GB,1685140810
